$GPGGA,084505.178,4035.688,N,07355.646,W,1,12,1.0,0.0,M,0.0,M,,*7A
$GPGSA,A,3,01,02,03,04,05,06,07,08,09,10,11,12,1.0,1.0,1.0*30
$GPRMC,084505.178,A,4035.688,N,07355.646,W,1942.6,313.1,120623,000.0,W*52
$GPGGA,084506.178,4036.106,N,07356.094,W,1,12,1.0,0.0,M,0.0,M,,*71
$GPGSA,A,3,01,02,03,04,05,06,07,08,09,10,11,12,1.0,1.0,1.0*30
$GPRMC,084506.178,A,4036.106,N,07356.094,W,1137.8,258.4,120623,000.0,W*56
$GPGGA,084507.178,4036.024,N,07356.496,W,1,12,1.0,0.0,M,0.0,M,,*77
$GPGSA,A,3,01,02,03,04,05,06,07,08,09,10,11,12,1.0,1.0,1.0*30
$GPRMC,084507.178,A,4036.024,N,07356.496,W,456.2,168.4,120623,000.0,W*69
$GPGGA,084508.178,4035.899,N,07356.470,W,1,12,1.0,0.0,M,0.0,M,,*7D
$GPGSA,A,3,01,02,03,04,05,06,07,08,09,10,11,12,1.0,1.0,1.0*30
$GPRMC,084508.178,A,4035.899,N,07356.470,W,822.9,264.8,120623,000.0,W*64
$GPGGA,084509.178,4035.871,N,07356.769,W,1,12,1.0,0.0,M,0.0,M,,*71
$GPGSA,A,3,01,02,03,04,05,06,07,08,09,10,11,12,1.0,1.0,1.0*30
$GPRMC,084509.178,A,4035.871,N,07356.769,W,2488.0,349.8,120623,000.0,W*51
$GPGGA,084510.178,4036.556,N,07356.892,W,1,12,1.0,0.0,M,0.0,M,,*79
$GPGSA,A,3,01,02,03,04,05,06,07,08,09,10,11,12,1.0,1.0,1.0*30
$GPRMC,084510.178,A,4036.556,N,07356.892,W,1653.2,348.5,120623,000.0,W*50
$GPGGA,084511.178,4037.009,N,07356.985,W,1,12,1.0,0.0,M,0.0,M,,*71
$GPGSA,A,3,01,02,03,04,05,06,07,08,09,10,11,12,1.0,1.0,1.0*30
$GPRMC,084511.178,A,4037.009,N,07356.985,W,2033.2,349.6,120623,000.0,W*59
$GPGGA,084512.178,4037.568,N,07357.088,W,1,12,1.0,0.0,M,0.0,M,,*75
$GPGSA,A,3,01,02,03,04,05,06,07,08,09,10,11,12,1.0,1.0,1.0*30
$GPRMC,084512.178,A,4037.568,N,07357.088,W,1608.9,348.8,120623,000.0,W*54
$GPGGA,084513.178,4038.010,N,07357.175,W,1,12,1.0,0.0,M,0.0,M,,*72
$GPGSA,A,3,01,02,03,04,05,06,07,08,09,10,11,12,1.0,1.0,1.0*30
$GPRMC,084513.178,A,4038.010,N,07357.175,W,840.3,263.4,120623,000.0,W*6E
$GPGGA,084514.178,4037.975,N,07357.479,W,1,12,1.0,0.0,M,0.0,M,,*79
$GPGSA,A,3,01,02,03,04,05,06,07,08,09,10,11,12,1.0,1.0,1.0*30
$GPRMC,084514.178,A,4037.975,N,07357.479,W,1569.4,167.9,120623,000.0,W*5F
$GPGGA,084515.178,4037.545,N,07357.387,W,1,12,1.0,0.0,M,0.0,M,,*71
$GPGSA,A,3,01,02,03,04,05,06,07,08,09,10,11,12,1.0,1.0,1.0*30
$GPRMC,084515.178,A,4037.545,N,07357.387,W,2079.1,168.8,120623,000.0,W*5B
$GPGGA,084516.178,4036.974,N,07357.273,W,1,12,1.0,0.0,M,0.0,M,,*77
$GPGSA,A,3,01,02,03,04,05,06,07,08,09,10,11,12,1.0,1.0,1.0*30
$GPRMC,084516.178,A,4036.974,N,07357.273,W,1109.3,169.5,120623,000.0,W*56
$GPGGA,084517.178,4036.669,N,07357.217,W,1,12,1.0,0.0,M,0.0,M,,*77
$GPGSA,A,3,01,02,03,04,05,06,07,08,09,10,11,12,1.0,1.0,1.0*30
$GPRMC,084517.178,A,4036.669,N,07357.217,W,710.5,259.4,120623,000.0,W*6E
$GPGGA,084518.178,4036.622,N,07357.469,W,1,12,1.0,0.0,M,0.0,M,,*78
$GPGSA,A,3,01,02,03,04,05,06,07,08,09,10,11,12,1.0,1.0,1.0*30
$GPRMC,084518.178,A,4036.622,N,07357.469,W,719.5,267.4,120623,000.0,W*65
$GPGGA,084519.178,4036.610,N,07357.732,W,1,12,1.0,0.0,M,0.0,M,,*75
$GPGSA,A,3,01,02,03,04,05,06,07,08,09,10,11,12,1.0,1.0,1.0*30
$GPRMC,084519.178,A,4036.610,N,07357.732,W,878.7,265.1,120623,000.0,W*65
$GPGGA,084520.178,4036.583,N,07358.051,W,1,12,1.0,0.0,M,0.0,M,,*7B
$GPGSA,A,3,01,02,03,04,05,06,07,08,09,10,11,12,1.0,1.0,1.0*30
$GPRMC,084520.178,A,4036.583,N,07358.051,W,1104.8,345.6,120623,000.0,W*53
$GPGGA,084521.178,4036.884,N,07358.128,W,1,12,1.0,0.0,M,0.0,M,,*7F
$GPGSA,A,3,01,02,03,04,05,06,07,08,09,10,11,12,1.0,1.0,1.0*30
$GPRMC,084521.178,A,4036.884,N,07358.128,W,974.2,354.6,120623,000.0,W*63
$GPGGA,084522.178,4037.154,N,07358.154,W,1,12,1.0,0.0,M,0.0,M,,*72
$GPGSA,A,3,01,02,03,04,05,06,07,08,09,10,11,12,1.0,1.0,1.0*30
$GPRMC,084522.178,A,4037.154,N,07358.154,W,563.6,343.1,120623,000.0,W*61
$GPGGA,084523.178,4037.306,N,07358.200,W,1,12,1.0,0.0,M,0.0,M,,*74
$GPGSA,A,3,01,02,03,04,05,06,07,08,09,10,11,12,1.0,1.0,1.0*30
$GPRMC,084523.178,A,4037.306,N,07358.200,W,512.6,257.7,120623,000.0,W*63
$GPGGA,084524.178,4037.267,N,07358.380,W,1,12,1.0,0.0,M,0.0,M,,*7C
$GPGSA,A,3,01,02,03,04,05,06,07,08,09,10,11,12,1.0,1.0,1.0*30
$GPRMC,084524.178,A,4037.267,N,07358.380,W,512.6,257.7,120623,000.0,W*6B
